,City,Cloudiness,Country,Date,Humidity,Lat,Lng,Max Temp,Wind Speed
0,Hervey Bay,0,AU,1562833340,53,-25.3,152.85,71.6,6.93
1,New Norfolk,40,AU,1562833359,66,-42.78,147.06,48.2,11.41
2,Longyearbyen,75,NO,1562833360,81,78.22,15.63,46.4,2.24
3,Rikitea,15,PF,1562833361,84,-23.12,-134.97,73.22,17.13
4,Kununurra,11,AU,1562833362,17,-15.77,128.74,86.0,9.17
5,Neuquen,0,AR,1562833225,93,-38.95,-68.06,39.2,4.32
6,Naze,100,NG,1562833365,83,5.43,7.07,77.9,5.68
7,Esperance,40,AU,1562833366,72,-33.86,121.89,60.8,16.11
8,Zhezkazgan,100,KZ,1562833367,15,47.8,67.71,95.0,13.42
9,Stuttgart,20,DE,1562833300,67,48.78,9.18,68.0,2.24
10,Puerto Ayora,0,EC,1562833369,85,-0.74,-90.35,68.54,7.74
11,Vawkavysk,75,BY,1562833371,82,53.15,24.45,59.0,8.95
12,Port-Cartier,40,CA,1562833372,81,50.03,-66.88,48.99,5.82
13,Caconda,0,AO,1562833373,13,-13.73,15.06,72.14,5.3
14,Namibe,0,AO,1562833374,82,-15.19,12.15,64.4,9.17
15,Mount Gambier,75,AU,1562833375,76,-37.83,140.78,53.6,10.29
16,Ornskoldsvik,0,SE,1562833377,47,63.29,18.72,59.0,6.93
17,Kruisfontein,0,ZA,1562833378,28,-34.0,24.73,74.3,9.66
18,Marau,8,BR,1562833379,92,-28.45,-52.2,51.44,5.26
19,Ust-Kut,27,RU,1562833380,30,56.78,105.75,86.9,5.59
20,Atuona,100,PF,1562833174,81,-9.8,-139.03,80.42,17.63
21,Saint-Philippe,75,CA,1562833383,77,45.36,-73.48,73.0,2.24
22,Busselton,11,AU,1562833384,50,-33.64,115.35,62.01,12.68
23,Pryazha,75,RU,1562833385,66,61.69,33.62,50.0,11.18
24,Marquette,75,US,1562833321,87,46.54,-87.4,60.8,9.17
25,Hilton Head Island,20,US,1562833387,88,32.16,-80.75,82.99,3.36
26,Faanui,42,PF,1562833388,72,-16.48,-151.75,77.9,7.9
27,Provideniya,0,RU,1562833390,49,64.42,-173.23,65.84,3.11
28,Ushuaia,90,AR,1562833391,86,-54.81,-68.31,37.4,3.29
29,Bluff,8,AU,1562833392,40,-23.58,149.07,63.86,8.39
30,Kapaa,75,US,1562833153,74,22.08,-159.32,80.6,13.87
31,Mayskiy,20,RU,1562833394,47,43.63,44.06,78.8,2.24
32,Chuy,76,UY,1562833396,91,-33.69,-53.46,54.14,2.95
33,Baie-Comeau,1,CA,1562833397,87,49.22,-68.15,51.8,8.05
34,Christchurch,0,NZ,1562833168,87,-43.53,172.64,44.6,4.7
35,Vanimo,100,PG,1562833399,71,-2.67,141.3,82.22,4.45
36,Coihaique,100,CL,1562833400,93,-45.58,-72.07,35.6,6.93
37,Leh,83,IN,1562833401,41,34.16,77.58,53.6,3.6
38,Albany,1,US,1562833374,100,42.65,-73.75,72.0,4.7
39,Ternate,20,PH,1562833404,66,14.29,120.72,91.99,11.41
40,Punta Arenas,90,CL,1562833405,100,-53.16,-70.91,37.4,6.93
41,Byron Bay,0,AU,1562833406,77,-28.65,153.62,66.0,5.82
42,Taltal,41,CL,1562833407,93,-25.41,-70.49,48.92,5.86
43,Necochea,100,AR,1562833225,97,-38.55,-58.74,37.99,1.99
44,Butaritari,98,KI,1562833410,70,3.07,172.79,84.92,5.99
45,Vaini,75,IN,1562833411,94,15.34,74.49,71.6,13.87
46,Lensk,33,RU,1562833412,42,60.71,114.91,80.78,6.69
47,Huilong,100,CN,1562833413,88,31.15,106.5,74.84,3.42
48,Severo-Kurilsk,100,RU,1562833415,97,50.68,156.12,43.16,17.11
49,Dikson,100,RU,1562833416,97,73.51,80.55,31.64,8.1
50,Hobart,40,AU,1562833220,66,-42.88,147.33,48.2,11.41
51,Baiquan,100,CN,1562833418,58,47.61,126.08,78.62,2.91
52,Bar Bigha,100,IN,1562833419,59,25.22,85.74,86.54,13.71
53,Tiksi,26,RU,1562833420,55,71.64,128.87,54.14,3.87
54,Lebu,75,ET,1562833422,63,8.96,38.73,66.2,6.93
55,Yulara,100,AU,1562833423,11,-25.24,130.99,73.4,3.36
56,Nome,1,US,1562833424,100,30.04,-94.42,82.99,5.1
57,Kargasok,42,RU,1562833425,44,59.06,80.87,79.16,5.75
58,Axim,46,GH,1562833427,84,4.87,-2.24,76.46,7.74
59,Thompson,75,CA,1562833428,87,55.74,-97.86,50.0,2.8
60,Puro,37,PH,1562833429,66,13.13,123.76,85.46,3.22
61,Jamestown,99,AU,1562833430,79,-33.21,138.6,53.06,15.77
62,San Javier,100,BR,1562833431,95,-27.87,-55.13,57.2,4.85
63,Marrakesh,43,MA,1562833212,72,31.63,-7.99,68.0,8.05
64,Killybegs,90,IE,1562833434,87,54.63,-8.45,59.0,14.99
65,Denpasar,75,ID,1562833435,78,-8.65,115.22,80.6,17.22
66,Hilo,20,US,1562833436,88,19.71,-155.08,79.0,3.98
67,Gizo,0,IL,1562833437,62,31.8,34.94,91.99,9.17
68,Anaimalai,94,IN,1562833439,54,10.58,76.93,87.98,6.93
69,Port Alfred,0,ZA,1562833440,58,-33.59,26.89,71.01,1.99
70,Clinton,1,US,1562833441,94,41.28,-72.53,75.2,1.23
71,Avarua,94,CK,1562833442,88,-21.21,-159.78,69.8,3.36
72,Yellowknife,75,CA,1562833443,71,62.45,-114.38,51.8,6.93
73,Fairbanks,75,US,1562833445,68,64.84,-147.72,71.6,3.36
74,Shenjiamen,46,CN,1562833446,83,29.96,122.3,76.82,12.5
75,Kalmunai,100,LK,1562833447,38,7.42,81.82,96.44,9.28
76,Sur,14,OM,1562833448,42,22.57,59.53,94.1,7.63
77,Castro,90,CL,1562833450,100,-42.48,-73.76,44.6,9.17
78,Vila Franca do Campo,20,PT,1562833451,88,37.72,-25.43,68.0,4.7
79,Beringovskiy,0,RU,1562833452,71,63.05,179.32,57.56,3.22
80,Neiafu,75,TO,1562833453,94,-18.65,-173.98,75.2,3.36
81,Tuktoyaktuk,100,CA,1562833455,90,69.44,-133.03,36.32,16.31
82,Chatellerault,0,FR,1562833456,64,46.8,0.53,73.99,2.24
83,Georgetown,40,GY,1562833457,100,6.8,-58.16,73.4,4.7
84,Cape Town,75,ZA,1562833202,93,-33.93,18.42,57.99,3.36
85,Vostok,100,RU,1562833459,81,46.45,135.83,74.66,3.24
86,Barrow,100,AR,1562833460,85,-38.31,-60.23,46.4,4.29
87,Urucui,0,BR,1562833462,71,-7.23,-44.56,70.16,6.29
88,Tarakan,75,ID,1562833463,74,3.3,117.63,86.0,4.7
89,Talnakh,20,RU,1562833464,47,69.49,88.39,57.2,8.95
90,Hasaki,75,JP,1562833465,73,35.73,140.83,69.8,8.05
91,Afyonkarahisar,40,TR,1562833467,37,38.76,30.53,86.0,13.87
92,Honningsvag,0,NO,1562833468,43,70.98,25.97,55.4,6.93
93,Graaff-Reinet,0,ZA,1562833451,14,-32.25,24.53,75.74,11.27
94,Elat,100,CM,1562833470,98,2.91,11.16,68.36,1.1
95,Kollam,75,IN,1562833471,74,8.88,76.6,84.2,5.82
96,Mataura,0,NZ,1562833473,94,-46.19,168.86,44.01,3.0
97,Saint George,75,GR,1562833384,40,39.45,22.34,75.0,13.87
98,Vaitape,42,PF,1562833475,72,-16.52,-151.75,77.9,7.9
99,Saskylakh,100,RU,1562833476,39,71.97,114.09,68.18,4.56
100,Pangnirtung,100,CA,1562833477,58,66.15,-65.72,56.48,4.43
101,Tauranga,51,NZ,1562833423,91,-37.69,176.17,48.0,1.66
102,Anadyr,0,RU,1562833480,45,64.73,177.51,68.0,8.95
103,Vanderhoof,61,CA,1562833481,97,54.02,-124.02,49.28,3.96
104,Hermanus,0,ZA,1562833482,93,-34.42,19.24,57.99,16.53
105,Pacific Grove,1,US,1562833483,77,36.62,-121.92,62.6,10.67
106,Torbay,90,CA,1562833484,100,47.66,-52.73,48.2,3.36
107,Coahuayana,100,MX,1562833486,96,18.62,-100.35,69.08,1.54
108,Tuatapere,0,NZ,1562833487,94,-46.13,167.69,44.01,3.0
109,Te Anau,6,NZ,1562833488,81,-45.41,167.72,43.34,2.04
110,Gotsu,40,JP,1562833489,62,35.01,132.22,84.2,10.29
111,Hithadhoo,100,MV,1562833491,70,-0.6,73.08,84.92,8.34
112,Buala,100,SB,1562833492,82,-8.15,159.59,79.52,4.5
113,Kiama,0,AU,1562833493,43,-34.67,150.86,59.0,20.8
114,Kahului,40,US,1562833290,69,20.89,-156.47,80.6,8.05
115,Warrnambool,72,AU,1562833495,65,-38.38,142.48,53.01,5.01
116,Matay,0,EG,1562833497,22,28.42,30.79,95.9,12.28
117,Namatanai,100,PG,1562833498,78,-3.66,152.44,79.16,21.14
118,Fereydun Kenar,40,IR,1562833499,70,36.69,52.52,86.0,6.93
119,Iqaluit,75,CA,1562833500,81,63.75,-68.52,46.4,3.36
120,Airai,18,TL,1562833501,63,-8.93,125.41,76.28,1.9
121,Cockburn Town,0,TC,1562833336,85,21.46,-71.14,80.6,17.92
122,Barra,0,BR,1562833504,81,-11.09,-43.14,65.48,4.16
123,Hami,100,CN,1562833505,17,42.84,93.51,91.76,5.95
124,Carnarvon,0,ZA,1562833506,20,-30.97,22.13,62.42,16.73
125,Oriximina,40,BR,1562833508,88,-1.77,-55.87,74.66,0.69
126,East London,0,ZA,1562833509,60,-33.02,27.91,68.0,5.82
127,Bowen,47,AU,1562833510,78,-20.01,148.25,71.6,10.29
128,Kholm-Zhirkovskiy,100,RU,1562833511,57,55.52,33.47,60.62,9.73
129,Astoria,83,US,1562833513,93,46.19,-123.83,62.01,10.04
130,Tarauaca,16,BR,1562833514,91,-8.16,-70.77,68.36,1.61
131,Tautira,20,PF,1562833515,65,-17.73,-149.15,78.8,11.41
132,Clyde River,75,CA,1562833516,58,70.47,-68.59,53.6,10.29
133,Rokytne,100,UA,1562833517,85,51.27,27.23,58.28,9.19
134,Afrikanda,100,RU,1562833519,64,67.44,32.78,45.32,11.23
135,Belozerskoye,100,RU,1562833520,64,55.82,65.58,73.22,15.9
136,Vardo,90,US,1562833521,88,39.62,-77.74,75.2,2.57
137,Sicamous,90,CA,1562833522,93,50.84,-118.99,59.0,4.7
138,Bredasdorp,0,ZA,1562833524,82,-34.53,20.04,60.8,10.29
139,Nikolskoye,90,RU,1562833525,58,59.7,30.79,57.99,11.18
140,Isilkul,67,RU,1562833526,50,54.9,71.26,79.34,13.82
141,Isangel,100,VU,1562833527,80,-19.55,169.27,73.76,13.76
142,Salzgitter,75,DE,1562833528,67,52.15,10.36,66.0,3.36
143,Deputatskiy,100,RU,1562833530,58,69.3,139.9,67.28,12.12
144,Caravelas,95,BR,1562833531,82,-17.73,-39.27,70.52,7.05
145,Okha,96,RU,1562833532,85,53.59,142.95,59.36,7.52
146,Khani,75,GE,1562833533,62,41.96,42.96,84.2,6.93
147,Gresham,90,US,1562833534,82,45.51,-122.44,66.99,3.18
148,Limbang,75,BN,1562833536,59,4.75,115.01,91.4,8.05
149,Cidreira,88,BR,1562833537,74,-30.17,-50.22,56.66,3.69
150,Klyuchi,67,RU,1562833538,37,52.25,79.17,77.0,12.55
151,Hastings,68,NZ,1562833539,92,-39.64,176.84,43.34,2.59
152,Manutuke,68,NZ,1562833541,60,-38.68,177.91,55.0,4.0
153,Calbuco,75,CL,1562833542,87,-41.77,-73.13,46.4,12.75
154,Kaitangata,0,NZ,1562833543,86,-46.28,169.85,46.99,1.99
155,Cabra,0,ES,1562833544,36,37.47,-4.43,79.0,9.17
156,Ahipara,6,NZ,1562833545,100,-35.17,173.16,55.0,7.29
157,Itarema,29,BR,1562833547,78,-2.92,-39.92,72.32,5.88
158,Araouane,0,ML,1562833548,34,18.9,-3.53,92.84,9.71
159,Poum,20,MK,1562833549,45,41.28,20.71,64.4,10.29
160,Sale,77,AU,1562833550,69,-38.11,147.06,55.99,12.01
161,Maputo,20,MZ,1562833551,88,-25.97,32.57,64.4,5.82
162,Kungurtug,100,RU,1562833553,64,50.6,97.53,68.54,5.75
163,Lujan,0,AR,1562833554,84,-46.57,-67.67,39.2,10.74
164,Mahebourg,20,MU,1562833555,61,-20.41,57.7,78.8,8.05
165,Lydenburg,0,ZA,1562833556,40,-25.1,30.46,75.0,4.32
166,San Cristobal,92,HN,1562833557,97,14.68,-86.92,64.4,2.98
167,Tasiilaq,0,GL,1562833559,70,65.61,-37.64,42.8,5.82
168,Souillac,0,FR,1562833560,60,45.6,-0.6,75.2,1.12
169,Narsaq,90,GL,1562833561,87,60.91,-46.05,42.8,6.93
170,Kavieng,100,PG,1562833562,72,-2.57,150.8,83.12,11.61
171,Ostrovnoy,100,RU,1562833564,92,68.05,39.51,40.28,27.27
172,Yerbogachen,64,RU,1562833565,33,61.28,108.01,83.48,7.9
173,Pevek,3,RU,1562833566,60,69.7,170.27,53.96,9.15
174,Kandrian,100,PG,1562833567,80,-6.21,149.55,73.58,12.77
175,Ambilobe,66,MG,1562833568,41,-13.19,49.05,88.88,5.1
176,Mondovi,1,US,1562833570,82,44.57,-91.67,69.8,9.17
177,Lompoc,90,US,1562833571,100,34.64,-120.46,61.0,6.93
178,Mahibadhoo,100,MV,1562833572,59,3.78,72.97,84.92,4.85
179,Tamale,30,GH,1562833573,66,9.4,-0.84,80.96,8.9
180,Kommunisticheskiy,98,RU,1562833575,60,61.68,64.48,71.96,11.72
181,Kaeo,0,NZ,1562833576,92,-35.1,173.78,55.0,3.36
182,Candelaria,59,PH,1562833577,88,13.93,121.42,80.96,2.89
183,Norman Wells,90,CA,1562833578,93,65.28,-126.83,57.2,10.29
184,Palafrugell,0,ES,1562833579,51,41.92,3.16,84.99,1.12
185,Qaanaaq,100,GL,1562833581,57,77.48,-69.36,41.9,6.62
186,Bambous Virieux,20,MU,1562833582,61,-20.34,57.76,78.8,8.05
187,Hudson Bay,100,CA,1562833583,95,52.86,-102.4,58.46,6.42
188,Kodiak,1,US,1562833584,88,39.95,-94.76,69.01,5.82
189,Lagoa,0,PT,1562833586,47,37.14,-8.45,82.0,5.82
190,Biak,100,ID,1562833587,97,-0.91,122.88,63.14,4.25
191,Baker City,1,US,1562833588,72,44.77,-117.83,66.99,3.36
192,Hammerfest,75,NO,1562833589,66,70.66,23.68,55.4,4.7
193,Honiara,40,SB,1562833590,83,-9.43,159.96,80.6,5.82
194,Luanda,94,AO,1562833592,83,-8.83,13.24,73.4,9.17
195,Vibo Valentia,20,IT,1562833593,62,38.68,16.09,84.2,6.93
196,Mar del Plata,0,AR,1562833594,84,-46.43,-67.52,39.2,10.74
197,Sudogda,100,RU,1562833595,94,55.95,40.86,55.94,3.4
198,Coquimbo,90,CL,1562833596,100,-29.95,-71.34,46.4,4.7
199,Paamiut,100,GL,1562833597,90,61.99,-49.67,42.08,4.54
200,Pasni,0,PK,1562833599,46,25.26,63.48,95.9,14.54
201,Laguna,40,BZ,1562833600,94,16.17,-88.94,77.0,1.43
202,Elizabeth City,1,US,1562833601,88,36.3,-76.22,79.0,4.7
203,Ambon,0,FR,1562833602,64,47.55,-2.56,71.01,3.36
204,Camacha,75,PT,1562833604,68,33.08,-16.33,69.8,18.34
205,Kathu,0,ZA,1562833605,30,-27.7,23.05,63.0,9.22
206,Quatre Cocos,20,MU,1562833606,61,-20.21,57.76,78.8,8.05
207,Quelimane,20,MZ,1562833607,64,-17.88,36.89,75.2,6.93
208,Boca do Acre,70,BR,1562833608,73,-8.76,-67.39,73.22,0.98
209,Santa Cruz,41,BR,1562833610,93,-6.22,-36.02,67.46,6.42
210,Mildura,60,AU,1562833611,67,-34.18,142.16,59.0,9.17
211,Vilhena,3,BR,1562833612,66,-12.74,-60.15,66.02,1.95
212,Katsuura,75,JP,1562833613,94,33.93,134.5,77.0,21.92
213,Lasa,20,CY,1562833614,74,34.92,32.53,90.0,13.87
214,Progreso,68,UY,1562833616,93,-34.68,-56.22,51.01,2.77
215,Fortuna,90,US,1562833617,87,40.6,-124.16,62.01,3.36
216,Bathsheba,20,BB,1562833618,74,13.22,-59.52,80.6,16.11
217,Na Wa,75,TH,1562833619,70,17.49,104.1,89.6,5.82
218,Nador,75,MA,1562833374,83,35.17,-2.93,75.2,5.82
219,Avera,1,US,1562833622,100,33.19,-82.53,77.0,3.24
220,Redcar,75,GB,1562833623,88,54.62,-1.06,64.99,5.82
221,Luang Prabang,75,LA,1562833624,62,19.89,102.14,89.6,2.24
222,Polyanka,100,UA,1562833625,89,50.26,27.69,56.3,11.88
223,Victoria,75,BN,1562833498,56,5.28,115.24,93.2,4.7
224,Rio Pardo de Minas,0,BR,1562833628,92,-15.62,-42.55,55.04,4.47
225,Pisco,40,PE,1562833629,87,-13.71,-76.2,55.4,3.36
226,Bukachacha,76,RU,1562833630,47,52.99,116.91,73.22,4.09
227,Palmer,75,AU,1562833631,82,-34.85,139.16,57.99,11.41
228,Sao Filipe,34,CV,1562833633,86,14.9,-24.5,71.78,15.88
229,Butler,75,US,1562833634,83,41.43,-84.87,75.2,5.82
230,La Orilla,100,MX,1562833635,80,18.0,-102.23,78.08,4.61
231,Maragogi,67,BR,1562833636,94,-9.01,-35.22,70.7,1.1
232,Verkhnyaya Inta,100,RU,1562833637,42,65.99,60.32,73.94,9.78
233,Cabo San Lucas,5,MX,1562833424,61,22.89,-109.91,81.0,4.0
234,Manicore,0,BR,1562833640,95,-5.81,-61.3,68.9,1.12
235,Udachnyy,75,RU,1562833641,28,66.42,112.4,80.6,6.71
236,Arraial do Cabo,46,BR,1562833642,76,-22.97,-42.02,61.7,7.94
237,Alice Springs,1,AU,1562833643,21,-23.7,133.88,69.8,8.05
238,Lorengau,100,PG,1562833645,92,-2.02,147.27,75.2,7.56
239,Tabou,100,CI,1562833646,74,4.42,-7.36,76.28,3.96
240,Smolenka,95,PL,1562833647,69,54.15,22.76,62.24,7.81
241,Weligama,100,LK,1562833427,76,5.97,80.42,83.66,9.93
242,Kirakira,91,SB,1562833649,83,-10.46,161.92,78.8,4.03
243,Geraldton,90,CA,1562833651,93,49.72,-86.95,53.6,11.41
244,Les Cayes,36,HT,1562833652,84,18.19,-73.75,80.96,15.57
245,Chicama,0,PE,1562833653,88,-7.84,-79.15,62.6,4.7
246,Netivot,0,IL,1562833654,21,31.42,34.59,91.99,3.0
247,Svolvaer,40,NO,1562833655,82,68.23,14.57,57.0,13.87
248,Pombas,0,BR,1562833657,60,-15.9,-54.74,61.16,2.62
249,Olbia,0,IT,1562833658,54,40.92,9.49,84.2,2.24
250,Cherskiy,100,RU,1562833659,40,68.75,161.3,75.92,3.78
251,Mahabaleshwar,100,IN,1562833660,81,17.92,73.66,79.52,9.82
252,Gat,0,SN,1562833661,78,14.69,-16.54,75.2,6.93
253,General Pico,100,AR,1562833663,75,-35.66,-63.75,45.14,1.12
254,Labuhan,55,ID,1562833664,73,-2.54,115.51,83.12,3.38
255,Thinadhoo,100,MV,1562833665,73,0.53,72.93,84.56,7.47
256,Igra,73,RU,1562833666,61,57.55,53.1,68.0,4.0
257,Goderich,74,CA,1562833667,67,43.74,-81.71,73.99,7.92
258,Rio Gallegos,100,AR,1562833482,98,-51.62,-69.22,40.82,7.05
259,Abha,0,SA,1562833670,16,18.22,42.5,87.8,6.93
260,Pitkyaranta,100,RU,1562833671,57,61.57,31.48,51.62,10.31
261,Miracema do Tocantins,12,BR,1562833672,55,-9.56,-48.4,68.9,2.39
262,Bethel,1,US,1562833591,88,60.79,-161.76,66.2,10.29
263,Lata,100,IN,1562833675,97,30.78,78.62,50.0,6.58
264,Grindavik,75,IS,1562833676,93,63.84,-22.43,53.6,5.82
265,Kropotkin,100,RU,1562833677,80,45.43,40.58,67.28,6.51
266,Emerald,0,AU,1562833678,42,-23.53,148.16,68.0,5.82
267,Coihueco,100,CL,1562833680,100,-36.63,-71.83,46.4,3.36
268,Jagdalpur,91,IN,1562833681,72,19.09,82.02,83.12,12.17
269,Wuwei,100,CN,1562833682,21,37.93,102.64,82.04,11.48
270,La Seyne-sur-Mer,0,FR,1562833683,69,43.1,5.88,87.01,6.93
271,Sitka,100,US,1562833685,75,37.17,-99.65,71.01,3.44
272,Miyako,75,JP,1562833686,74,33.63,130.94,82.99,5.82
273,Shambu,89,ET,1562833687,88,9.57,37.1,64.94,2.68
274,Verkhoyansk,100,RU,1562833688,32,67.55,133.39,80.42,5.35
275,San Quintin,100,PH,1562833689,75,17.54,120.52,83.66,4.32
276,Ancud,90,CL,1562833691,100,-41.87,-73.83,44.6,9.17
277,Lahij,75,YE,1562833692,33,13.06,44.88,98.6,5.48
278,Ucluelet,0,CA,1562833693,99,48.94,-125.55,59.0,8.41
279,George Town,75,MY,1562833694,88,5.42,100.33,86.0,6.93
280,Waddan,0,LY,1562833695,14,29.16,16.14,99.5,5.12
281,Itupeva,0,BR,1562833697,87,-23.15,-47.06,55.0,5.82
282,Bodden Town,38,KY,1562833698,76,19.28,-81.25,89.01,5.01
283,Chokurdakh,93,RU,1562833699,76,70.62,147.9,67.46,14.27
284,Balakhninskiy,0,RU,1562833700,35,58.01,114.28,82.76,2.53
285,Kefamenanu,77,ID,1562833701,64,-9.45,124.48,74.12,4.45
286,Abu Kamal,0,SY,1562833703,15,34.45,40.92,103.64,17.78
287,Great Bend,1,US,1562833704,93,38.36,-98.78,66.99,4.7
288,Carutapera,1,BR,1562833705,95,-1.2,-46.02,71.6,3.18
289,Mattru,46,SL,1562833706,89,7.62,-11.83,77.36,3.94
290,Gurupi,0,BR,1562833707,52,-11.73,-49.07,65.3,4.18
291,Upernavik,97,GL,1562833709,77,72.79,-56.15,41.9,3.47
292,Ponta do Sol,0,BR,1562833710,74,-20.63,-46.0,49.46,2.93
293,Ferrenafe,0,PE,1562833711,82,-6.64,-79.79,62.6,8.05
294,Russell,1,US,1562833712,77,38.9,-98.86,66.99,6.93
295,Northam,40,AU,1562833714,63,-31.65,116.67,62.6,6.93
296,Tekirdag,75,TR,1562833423,93,40.98,27.51,63.0,13.87
297,Marawi,100,PH,1562833716,76,8.0,124.29,82.99,5.01
298,Sao Joao da Barra,0,BR,1562833600,93,-21.64,-41.05,55.4,4.27
299,Buta,100,CD,1562833719,61,2.79,24.73,82.4,4.09
300,Mayo,90,CA,1562833720,52,63.59,-135.9,66.2,6.93
301,Sumbe,90,AO,1562833721,79,-11.2,13.84,68.0,6.93
302,Kudahuvadhoo,100,MV,1562833722,68,2.67,72.89,84.38,6.02
303,Balta,5,UA,1562833723,61,47.94,29.62,66.2,11.34
304,Ilulissat,98,GL,1562833725,93,69.22,-51.1,41.0,2.24
305,Hirara,40,JP,1562833726,79,24.8,125.28,87.8,17.22
306,Biltine,100,TD,1562833727,47,14.53,20.93,90.14,18.48
307,Mayumba,56,GA,1562833728,92,-3.44,10.65,72.32,9.78
308,Kholodnyy,100,RU,1562833729,63,62.72,147.95,68.0,4.74
309,Rocha,87,UY,1562833731,88,-34.48,-54.34,51.62,2.1
310,Griffith,90,AU,1562833732,66,-34.29,146.06,55.99,12.75
311,Conde,30,BR,1562833733,98,-11.81,-37.61,66.74,3.33
312,Plettenberg Bay,0,ZA,1562833734,35,-34.05,23.37,68.9,4.52
313,Eston,40,CA,1562833735,82,51.15,-108.75,63.0,14.99
314,Blythe,1,US,1562833737,14,33.61,-114.59,91.4,4.7
315,Ous,0,RU,1562833738,37,60.91,61.52,77.18,11.97
316,Vazhiny,94,RU,1562833739,54,60.96,34.04,51.98,6.82
317,Diglur,100,IN,1562833740,60,18.55,77.6,86.18,19.06
318,Okhotsk,100,RU,1562833741,73,59.36,143.24,58.64,10.25
319,Tam Ky,20,VN,1562833743,47,15.57,108.48,95.0,8.05
320,Paysandu,83,UY,1562833445,92,-32.32,-58.08,53.01,3.4
321,Uarini,54,BR,1562833745,98,-2.98,-65.16,69.26,0.22
322,Wattegama,96,LK,1562833746,53,7.35,80.68,89.24,6.62
323,Mongo,81,CD,1562833747,58,-5.62,14.6,77.9,6.62
324,Husavik,3,CA,1562833749,86,50.56,-96.99,60.01,6.85
325,Guerrero Negro,0,MX,1562833750,82,27.97,-114.04,66.74,19.08
326,Meadow Lake,99,CA,1562833751,98,54.13,-108.44,54.68,7.29
327,Missoula,1,US,1562833752,63,46.87,-114.0,64.4,2.71
328,Ardakan,68,IR,1562833753,18,32.31,54.02,96.8,9.17
329,North Branch,1,US,1562833755,72,45.51,-92.98,68.0,3.36
330,Cayenne,90,GF,1562833756,100,4.94,-52.33,71.6,3.38
331,Nishihara,20,JP,1562833757,77,35.74,139.53,73.99,3.36
332,Urubicha,0,BO,1562833758,78,-15.63,-63.08,66.74,1.72
333,Ambulu,33,ID,1562833759,85,-8.35,113.61,75.02,25.01
334,Adrar,0,DZ,1562833761,13,27.87,-0.29,100.4,8.05
335,Kumluca,0,TR,1562833762,23,36.37,30.29,84.2,11.88
336,Khatanga,100,RU,1562833763,62,71.98,102.47,53.96,8.39
337,Qasigiannguit,75,GL,1562833764,93,68.82,-51.19,41.0,2.24
338,Bilibino,96,RU,1562833766,56,68.06,166.44,70.34,0.13
339,Torres,1,BR,1562833767,73,-29.34,-49.73,56.3,3.74
340,Los Llanos de Aridane,75,ES,1562833768,83,28.66,-17.92,69.8,5.82
341,Hit,0,IQ,1562833769,12,33.64,42.83,106.34,17.29
342,Hassleholm,0,SE,1562833770,68,56.16,13.77,69.01,5.82
343,Shingu,75,JP,1562833772,88,33.72,135.99,75.2,5.82
344,Belyy Yar,0,RU,1562833773,49,53.6,91.39,73.4,8.95
345,Reichenau,20,DE,1562833774,52,49.19,10.51,69.01,4.7
346,Padilla,75,CO,1562833775,88,3.23,-76.31,69.8,4.7
347,Mana,100,NG,1562833776,54,13.03,5.27,85.46,15.3
348,General Roca,0,AR,1562833778,93,-39.03,-67.58,39.2,2.24
349,Kuryk,0,KZ,1562833779,28,43.18,51.68,94.64,12.03
350,Tessalit,3,ML,1562833780,18,20.2,1.01,98.78,12.64
351,Rio Bravo,1,GT,1562833781,96,14.4,-91.32,51.01,4.18
352,Riyadh,0,SA,1562833782,7,24.63,46.72,105.8,9.17
353,Nova Olinda do Norte,6,BR,1562833784,98,-3.89,-59.1,69.62,0.49
354,San Juan,4,AR,1562833785,27,-31.54,-68.53,41.54,5.03
355,Timra,0,SE,1562833786,51,62.49,17.33,66.0,6.93
356,Vikhorevka,97,RU,1562833787,60,56.12,101.17,68.0,11.18
357,Abay,0,KZ,1562833788,23,49.63,72.87,84.2,8.95
358,Ixtapa,40,MX,1562833790,78,20.71,-105.21,82.4,3.4
359,Auki,68,NG,1562833791,70,12.18,6.51,79.88,15.17
360,Farafenni,27,GM,1562833792,70,13.57,-15.6,81.86,10.45
361,San Patricio,100,PY,1562833793,80,-26.98,-56.83,62.96,8.55
362,Darnah,0,LY,1562833794,73,32.77,22.64,80.78,20.11
363,Manaure,77,CO,1562833796,83,11.78,-72.45,77.72,20.69
364,Lumphat,98,KH,1562833797,85,13.5,106.97,85.28,2.77
365,Vila Velha,75,BR,1562833798,83,-3.71,-38.6,77.0,2.24
366,Aljezur,0,PT,1562833799,46,37.31,-8.8,82.0,2.37
367,Serang,20,ID,1562833801,49,-6.12,106.15,90.0,17.22
368,Walvis Bay,90,NA,1562833802,93,-22.95,14.51,62.6,4.7
369,Atambua,22,ID,1562833803,68,-9.11,124.89,79.16,5.3
370,Timiryazevskoye,0,RU,1562833804,43,56.49,84.88,73.0,4.47
371,Dawlatabad,0,AF,1562833806,7,36.41,64.91,103.64,12.91
372,Salinas,1,US,1562833807,77,36.67,-121.66,62.6,6.93
373,Bambanglipuro,14,ID,1562833808,80,-7.95,110.28,76.82,19.48
374,Kiunga,98,PG,1562833809,82,-6.12,141.3,74.12,2.33
375,Qaqortoq,90,GL,1562833810,87,60.72,-46.03,42.8,6.93
376,Nandrin,40,BE,1562833812,72,50.51,5.42,71.01,10.29
377,Kingston,20,JM,1562833802,61,17.97,-76.79,82.4,4.7
378,Kontagora,100,NG,1562833814,85,10.4,5.47,74.48,6.89
379,Stromness,75,CA,1562833815,88,42.87,-79.55,75.99,3.36
380,Lotofaga,40,WS,1562833816,94,-13.98,-171.86,78.8,3.36
381,Kathmandu,75,NP,1562833596,83,27.71,85.32,75.2,16.11
382,Almansa,0,ES,1562833800,41,38.87,-1.1,84.0,6.93
383,Dunedin,16,NZ,1562833716,94,-45.87,170.5,46.99,3.0
384,Nioro,84,GM,1562833821,69,13.79,-15.05,80.96,10.96
385,The Valley,40,AI,1562833822,74,18.22,-63.06,81.0,11.41
386,Porto Velho,0,BR,1562833823,83,-8.75,-63.87,71.6,1.54
387,Beloha,61,MG,1562833825,54,-25.17,45.06,71.78,9.44
388,Mlonggo,20,ID,1562833826,38,-6.53,110.7,91.4,6.93
389,Batemans Bay,0,AU,1562833827,78,-35.71,150.18,59.0,5.99
390,Kuytun,93,RU,1562833828,60,54.34,101.51,74.12,10.69
391,Praia da Vitoria,40,PT,1562833829,88,38.73,-27.07,69.8,6.35
392,Tiznit,52,MA,1562833831,89,29.7,-9.73,66.74,6.17
393,Margate,40,AU,1562833832,66,-43.03,147.26,48.2,10.29
394,Achacachi,0,BO,1562833833,37,-16.04,-68.68,47.84,2.1
395,Naron,75,ES,1562833834,82,43.52,-8.15,70.0,4.7
396,Svetlaya,79,RU,1562833835,81,46.54,138.33,66.74,2.53
397,Orlik,20,PL,1562833837,59,53.95,17.74,77.0,10.29
398,Ribeira Grande,20,PT,1562833838,82,38.52,-28.7,68.0,4.7
399,Edd,2,ER,1562833839,22,13.93,41.69,103.64,3.62
400,Vestmannaeyjar,90,IS,1562833840,93,63.44,-20.27,50.0,20.8
401,Tortosa,0,ES,1562833675,69,40.81,0.52,82.99,3.36
402,Benton Harbor,75,US,1562833843,94,42.12,-86.45,73.99,7.4
403,Micheweni,57,TZ,1562833844,81,-4.97,39.83,77.36,18.12
404,Mombetsu,75,JP,1562833845,87,44.35,143.35,63.0,3.36
405,Poronaysk,100,RU,1562833846,94,49.22,143.1,51.44,4.36
406,Samarai,70,PG,1562833847,80,-10.62,150.67,69.98,7.61
407,Wajir,75,KE,1562833849,48,1.75,40.07,87.8,13.87
408,Shieli,31,KZ,1562833850,14,44.18,66.74,103.28,12.77
409,Azangaro,0,PE,1562833851,50,-14.91,-70.2,27.86,1.9
410,Superior,1,US,1562833852,67,39.95,-105.17,66.99,6.53
411,Srednekolymsk,30,RU,1562833853,33,67.46,153.71,81.14,7.31
412,Alofi,30,NU,1562833855,94,-19.06,-169.92,75.2,8.05
413,Shahr-e Babak,0,IR,1562833856,8,30.12,55.12,98.42,7.52
414,Katobu,7,ID,1562833857,73,-4.94,122.53,78.8,6.62
415,Fukue,75,JP,1562833858,88,35.03,136.69,71.6,19.46
416,Port Elizabeth,1,US,1562833849,93,39.31,-74.98,73.99,3.83
417,Tibati,100,CM,1562833861,96,6.47,12.63,67.28,3.76
418,Marzuq,22,YE,1562833862,14,14.4,46.47,94.64,3.4
419,New Bedford,90,US,1562833564,94,41.64,-70.93,72.0,4.7
420,La Ronge,90,CA,1562833864,100,55.1,-105.3,55.4,5.82
421,Belmonte,0,PT,1562833865,52,40.36,-7.35,80.01,3.0
422,Concordia,100,AR,1562833867,91,-31.4,-58.02,57.0,1.99
423,Macau,64,BR,1562833868,84,-5.11,-36.64,73.4,12.12
424,Tabuk,98,PH,1562833869,96,17.41,121.44,71.06,2.24
425,Phalodi,63,IN,1562833870,29,27.13,72.36,104.0,27.29
426,Ahuimanu,20,US,1562833871,88,21.44,-157.84,80.6,11.41
427,Abu Dhabi,0,AE,1562833873,19,24.47,54.37,105.8,11.41
428,Zhicheng,82,CN,1562833874,34,35.04,112.59,89.42,8.77
429,Ngunguru,0,NZ,1562833875,92,-35.62,174.5,51.01,5.23
430,Nizhniy Tsasuchey,13,RU,1562833876,27,50.52,115.13,85.82,3.8
431,Dingle,49,PH,1562833878,76,11.0,122.67,84.56,5.61
432,Galway,90,IE,1562833879,93,53.27,-9.05,59.0,9.17
433,Tual,15,ID,1562833880,80,-5.67,132.75,77.36,21.79
434,Talcahuano,90,CL,1562833881,93,-36.72,-73.12,50.0,3.36
435,Copiapo,9,CL,1562833882,87,-27.37,-70.33,50.0,5.82
436,Akhalgori,75,GE,1562833884,48,42.13,44.48,84.2,4.7
437,Lichuan,100,CN,1562833885,86,30.3,108.94,74.12,4.18
438,Waingapu,0,ID,1562833886,57,-9.65,120.26,76.82,13.18
439,Mount Isa,0,AU,1562833887,17,-20.73,139.49,73.4,9.17
440,Mehran,0,IR,1562833888,12,33.12,46.17,96.8,9.17
441,Santa Isabel do Rio Negro,35,BR,1562833890,99,-0.41,-65.02,69.44,1.57
442,Tanout,29,NE,1562833891,33,14.97,8.88,92.12,16.4
443,Lokot,24,RU,1562833892,59,52.57,34.57,66.38,4.88
444,Las Vegas,1,US,1562833732,24,36.17,-115.15,91.4,4.7
445,Barmer,6,IN,1562833894,31,25.74,71.4,102.74,27.25
446,Lavrentiya,0,RU,1562833896,54,65.58,-170.99,60.8,4.88
447,Touros,40,BR,1562833897,94,-5.2,-35.46,73.4,5.82
448,Juliaca,0,PE,1562833898,34,-15.49,-70.13,28.94,2.37
449,Kulhudhuffushi,100,MV,1562833899,65,6.62,73.07,83.84,1.28
450,Porbandar,40,IN,1562833900,70,21.64,69.61,91.4,11.41
451,Berlevag,0,NO,1562833902,76,70.86,29.09,55.4,14.99
452,Kant,0,KG,1562833903,16,42.89,74.85,98.6,11.18
453,Tokur,99,RU,1562833904,52,53.13,132.9,78.08,2.21
454,Adjud,40,RO,1562833905,56,46.1,27.18,68.0,2.24
455,Le Port,0,FR,1562833907,64,42.87,1.37,73.99,1.12
456,Kloulklubed,75,PW,1562833908,74,7.04,134.26,84.2,9.17
457,Leningradskiy,3,RU,1562833909,68,69.38,178.42,45.68,2.84
458,Hundested,62,DK,1562833910,63,55.97,11.85,70.0,3.36
459,Baykit,97,RU,1562833911,71,61.68,96.39,56.48,10.31
460,Iisalmi,75,FI,1562833912,54,63.56,27.19,53.6,3.36
461,Komsomolskiy,56,RU,1562833914,74,67.55,63.78,67.1,16.4
462,Bonavista,100,CA,1562833915,82,48.65,-53.11,46.99,3.0
463,Hailun,100,CN,1562833916,62,47.46,126.97,78.98,2.89
464,Hanzhong,100,CN,1562833918,86,33.08,107.03,69.8,3.27
465,Temiscaming,90,CA,1562833920,93,46.72,-79.1,66.99,6.93
466,Palapye,0,BW,1562833921,25,-22.54,27.12,73.58,6.98
467,Aden,35,YE,1562833637,34,12.79,45.03,102.02,6.17
468,Kjollefjord,0,NO,1562833923,43,70.95,27.35,55.4,6.93
469,Turukhansk,25,RU,1562833924,40,65.8,87.96,66.2,11.3
470,Baghdad,0,IQ,1562833684,23,33.3,44.38,105.8,17.22
471,Impfondo,100,CD,1562833927,94,1.62,18.06,71.6,3.06
472,Port Hardy,90,CA,1562833928,93,50.7,-127.42,59.0,4.29
473,Half Moon Bay,20,US,1562833929,77,37.46,-122.43,63.0,12.75
474,Yate,75,GB,1562833930,88,51.54,-2.41,70.0,8.05
475,Haines Junction,35,CA,1562833932,59,60.75,-137.51,52.34,3.38
476,Saldanha,0,PT,1562833933,32,41.42,-6.55,81.5,1.7
477,Terrasini,0,IT,1562833934,74,38.15,13.08,87.01,4.7
478,Dharchula,100,IN,1562833935,94,29.85,80.53,60.44,3.42
479,Charters Towers,43,AU,1562833936,65,-20.07,146.27,67.46,9.06
480,Pedasi,84,PA,1562833938,88,7.53,-80.03,72.32,1.74
481,Inirida,100,CO,1562833939,98,3.87,-67.92,69.62,2.84
482,Mao,20,DO,1562833940,100,19.55,-71.08,79.0,5.82
483,Salinopolis,3,BR,1562833941,74,-0.61,-47.36,80.78,13.11
484,Moindou,0,NC,1562833943,77,-21.69,165.68,68.0,10.18
485,Pyaozerskiy,100,RU,1562833944,70,65.83,31.17,45.14,9.89
486,Porto Novo,16,BR,1562833945,62,-23.68,-45.44,68.72,5.3
487,Oktyabrskoye,0,RU,1562833946,43,56.73,85.44,73.0,4.47
488,Nuqui,74,CO,1562833947,80,5.71,-77.27,78.08,4.59
489,Dhankuta,100,NP,1562833949,97,26.98,87.34,70.52,2.01
490,Pyapon,100,MM,1562833950,66,16.29,95.68,87.98,13.82
491,Bay City,1,US,1562833808,88,43.59,-83.89,75.2,7.25
492,Rio Cuarto,0,AR,1562833805,81,-33.13,-64.35,50.0,2.24
493,Esfahan,40,IR,1562833841,15,32.66,51.68,95.0,4.7
494,Sangar,0,RU,1562833954,41,63.92,127.47,80.6,13.58
495,Portland,1,US,1562833955,87,43.66,-70.25,62.01,2.33
496,Tilichiki,51,RU,1562833957,81,60.47,166.1,55.22,5.95
497,North Bend,90,US,1562833958,100,43.41,-124.22,62.01,3.36
498,Gornopravdinsk,100,RU,1562833959,68,60.06,69.92,66.56,12.21
499,Sorong,97,ID,1562833960,86,-0.86,131.25,76.46,8.99
500,Iwaki,75,JP,1562833961,77,37.05,140.89,66.2,9.17
501,Pangody,100,RU,1562833930,75,65.85,74.49,69.62,17.34
502,Akdepe,0,TM,1562833964,19,42.05,59.39,100.4,13.87
503,Hohhot,40,CN,1562833965,60,40.81,111.65,73.4,8.95
504,Tazovskiy,100,RU,1562833966,91,67.47,78.7,49.64,14.16
505,Port Lincoln,100,AU,1562833967,77,-34.72,135.86,58.1,31.07
506,Salalah,90,OM,1562833969,88,17.01,54.1,82.4,13.87
507,Juneau,40,US,1562833970,82,58.3,-134.42,60.8,3.36
508,Nalut,0,LY,1562833971,38,31.86,10.98,88.52,10.11
509,Klaksvik,100,FO,1562833972,93,62.23,-6.59,53.6,12.75
510,Ust-Tsilma,100,RU,1562833974,93,65.44,52.15,51.62,7.45
511,Lewisporte,90,CA,1562833975,100,49.25,-55.06,46.4,11.41
512,Poso,93,ID,1562833976,90,-1.4,120.75,67.1,3.24
513,Voyvozh,100,RU,1562833977,86,62.89,54.96,56.84,9.98
514,Narrabri,0,AU,1562833978,50,-30.33,149.78,57.2,6.93
515,Svetlogorsk,40,RU,1562833980,38,53.14,59.15,77.0,11.18
516,Dwarka,40,IN,1562833981,42,28.58,77.04,100.4,9.17
517,Maltahohe,0,NA,1562833982,11,-24.83,16.98,69.62,2.24
518,Santa Rosa,100,AR,1562833983,78,-36.62,-64.29,44.78,3.38
519,Riviere-au-Renard,5,CA,1562833984,87,49.0,-64.4,44.6,4.7
520,Itupiranga,0,BR,1562833986,100,-5.13,-49.33,71.6,2.46
521,Jawar,0,IQ,1562833987,9,32.75,45.21,112.28,16.67
522,Puteyets,81,RU,1562833988,75,65.17,57.09,64.22,11.18
523,Harper,1,US,1562833989,83,30.3,-99.24,73.0,4.38
524,Alyangula,37,AU,1562833990,65,-13.85,136.42,78.8,6.93
525,Mecca,0,SA,1562833711,8,21.43,39.83,107.78,9.6
526,San Andres,42,PH,1562833993,67,13.32,122.68,86.9,2.86
527,Castanos,67,MX,1562833994,57,26.78,-101.42,82.99,5.01
528,Thunder Bay,5,CA,1562833995,71,48.41,-89.26,57.99,5.82
529,Pochutla,100,MX,1562833996,81,15.74,-96.47,75.99,4.18
530,Nanortalik,0,GL,1562833997,89,60.14,-45.24,39.74,3.76
531,Kapit,63,MY,1562833999,53,2.02,112.94,90.68,3.8
532,Kamaishi,75,JP,1562834000,72,39.28,141.86,68.0,10.29
533,Agadez,0,NE,1562834001,51,16.97,7.99,86.0,11.41
534,Hay River,40,CA,1562834002,66,60.82,-115.79,55.4,8.05
535,Ulladulla,0,AU,1562834003,43,-35.36,150.48,57.0,19.46
536,Ozernovskiy,100,RU,1562834005,98,51.5,156.52,43.16,6.11
537,Paso de los Toros,81,UY,1562834006,92,-32.81,-56.52,57.38,2.66
538,Ayr,54,AU,1562834007,82,-19.58,147.4,70.0,2.01
539,Maturin,0,VE,1562833826,92,9.75,-63.18,66.92,2.62
540,Kaliua,0,TZ,1562834009,34,-5.06,31.79,82.94,8.37
541,Kangundo,98,KE,1562834011,56,-1.3,37.35,71.6,6.93
542,Saposoa,9,PE,1562834012,88,-6.93,-76.77,61.52,3.27
543,Innisfail,97,AU,1562834013,91,-17.52,146.03,68.18,3.36
544,Saint-Augustin,75,CA,1562834014,88,45.63,-73.98,72.0,5.82
545,Egvekinot,0,RU,1562834015,31,66.32,-179.17,71.6,4.7
546,Gorontalo,100,ID,1562834017,85,0.54,123.06,77.36,5.37
547,Tolstoy-Yurt,0,RU,1562834018,48,43.44,45.77,84.2,13.42
548,Mumbwa,0,ZM,1562834019,30,-14.99,27.06,73.76,9.53
549,Sola,1,TZ,1562834020,35,-3.17,33.8,83.3,12.01
550,Waiouru,83,NZ,1562834022,90,-39.48,175.67,45.5,7.85
551,College,75,US,1562834023,68,64.86,-147.8,71.6,3.36
552,Popondetta,100,PG,1562834024,88,-8.77,148.24,64.04,1.16
553,Alamor,29,EC,1562834025,90,-4.02,-80.02,59.18,5.5
554,Derzhavinsk,100,KZ,1562834026,20,51.1,66.31,90.68,7.45
555,Ponce,0,PR,1562833857,75,18.01,-66.61,81.0,1.99
